[
  {
    "name": "C.E. Juan Ramón Jiménez",
    "country": "El Salvador",
    "lat": 13.6850997,
    "lng": -89.225442,
    "found": true
  },
  {
    "name": "C.E. República de Canadá",
    "country": "El Salvador",
    "lat": 13.735,
    "lng": -89.21,
    "found": false
  },
  {
    "name": "C.E. Ramón Belloso",
    "country": "El Salvador",
    "lat": 13.6894299,
    "lng": -89.191927,
    "found": true
  },
  {
    "name": "C.E. Capitán General Gerardo Barrios",
    "country": "El Salvador",
    "lat": 13.6953988,
    "lng": -89.2053305,
    "found": true
  },
  {
    "name": "C.E. Colonia San Ramón",
    "country": "El Salvador",
    "lat": 13.9951035,
    "lng": -89.5954644,
    "found": true
  },
  {
    "name": "C.E. República del Perú",
    "country": "El Salvador",
    "lat": 13.6926245,
    "lng": -89.2368042,
    "found": true
  },
  {
    "name": "C.E. Amalia Viuda de Menéndez",
    "country": "El Salvador",
    "lat": 13.7247955,
    "lng": -89.1886776,
    "found": true
  },
  {
    "name": "Escuela Parroquial San José de la Montaña",
    "country": "El Salvador",
    "lat": 13.85,
    "lng": -89.05,
    "found": false
  },
  {
    "name": "C.E. Walter Soundy",
    "country": "El Salvador",
    "lat": 13.679669,
    "lng": -89.2795252,
    "found": true
  },
  {
    "name": "Escuela Urbana de Niñas Margarita Durán",
    "country": "El Salvador",
    "lat": 13.67,
    "lng": -89.245,
    "found": false
  },
  {
    "name": "C.E. Católica Luisa de Marillac",
    "country": "El Salvador",
    "lat": 13.72,
    "lng": -89.23,
    "found": false
  },
  {
    "name": "C.E. Herberth de Sola",
    "country": "El Salvador",
    "lat": 13.71,
    "lng": -89.215,
    "found": false
  },
  {
    "name": "C.E. Caserío Villa Esperanza",
    "country": "El Salvador",
    "lat": 13.7946216,
    "lng": -89.338639,
    "found": true
  },
  {
    "name": "C.E. San Francisco",
    "country": "El Salvador",
    "lat": 13.9433215,
    "lng": -89.9103876,
    "found": true
  },
  {
    "name": "C.E. Napoleón Ríos",
    "country": "El Salvador",
    "lat": 13.9832805,
    "lng": -89.5620837,
    "found": true
  },
  {
    "name": "C.E. Dr. Humberto Quinteros",
    "country": "El Salvador",
    "lat": 13.7,
    "lng": -89.235,
    "found": false
  },
  {
    "name": "C.E.B. Las Américas",
    "country": "Honduras",
    "lat": 14.4350848,
    "lng": -89.1903001,
    "found": true
  },
  {
    "name": "Escuela Modesto Rodas Alvarado",
    "country": "Honduras",
    "lat": 14.0753097,
    "lng": -87.2245754,
    "found": true
  },
  {
    "name": "C.E.B. Estado de Israel",
    "country": "Honduras",
    "lat": 14.0714921,
    "lng": -87.2228571,
    "found": true
  },
  {
    "name": "República de China",
    "country": "Honduras",
    "lat": 14.0543128,
    "lng": -87.1764773,
    "found": true
  },
  {
    "name": "C.E.B. Tim Hines",
    "country": "Honduras",
    "lat": 14.11,
    "lng": -87.212,
    "found": false
  },
  {
    "name": "C.E.B. República de Honduras",
    "country": "Honduras",
    "lat": 15.2572432,
    "lng": -86.0755145,
    "found": true
  },
  {
    "name": "C.E.B. Dr. Ramón Rosa #2",
    "country": "Honduras",
    "lat": 14.12,
    "lng": -87.223,
    "found": false
  },
  {
    "name": "C.E.B. Manuel Bonilla",
    "country": "Honduras",
    "lat": 15.7888241,
    "lng": -86.7918679,
    "found": true
  },
  {
    "name": "C.E.B. Mary Flakes de Flores",
    "country": "Honduras",
    "lat": 14.0882658,
    "lng": -87.2525166,
    "found": true
  },
  {
    "name": "C.E.B. Roberto Larios Silva",
    "country": "Honduras",
    "lat": 14.09,
    "lng": -87.206,
    "found": false
  },
  {
    "name": "C.E.B. José Trinidad Cabañas (Aldea Boquerón)",
    "country": "Honduras",
    "lat": 14.06,
    "lng": -87.21,
    "found": false
  },
  {
    "name": "C.E.B. José Castro López",
    "country": "Honduras",
    "lat": 15.4202542,
    "lng": -88.1645016,
    "found": true
  },
  {
    "name": "C.E.B. José Trinidad Cabañas (Villa Nueva)",
    "country": "Honduras",
    "lat": 14.42,
    "lng": -88.25,
    "found": false
  },
  {
    "name": "C.E.B. Marcelino Pineda López",
    "country": "Honduras",
    "lat": 14.4504443,
    "lng": -87.6457371,
    "found": true
  },
  {
    "name": "Escuela Bertha Herrera de Ruano",
    "country": "Guatemala",
    "lat": 14.4875,
    "lng": -90.6875,
    "found": false
  },
  {
    "name": "Escuela Eduardo Cáceres",
    "country": "Guatemala",
    "lat": 14.65,
    "lng": -90.505,
    "found": false
  },
  {
    "name": "Escuela Mezquital II JM",
    "country": "Guatemala",
    "lat": 14.505,
    "lng": -90.695,
    "found": false
  },
  {
    "name": "Escuela Mezquital II JV",
    "country": "Guatemala",
    "lat": 14.507,
    "lng": -90.696,
    "found": false
  },
  {
    "name": "Escuela José María Fuentes",
    "country": "Guatemala",
    "lat": 14.63,
    "lng": -90.515,
    "found": false
  },
  {
    "name": "Escuela Juan de Francisco Martí",
    "country": "Guatemala",
    "lat": 14.62,
    "lng": -90.52,
    "found": false
  },
  {
    "name": "Escuela Pedro Valenzuela",
    "country": "Guatemala",
    "lat": 14.59,
    "lng": -90.54,
    "found": false
  },
  {
    "name": "Escuela República de Urugüay",
    "country": "Guatemala",
    "lat": 14.64,
    "lng": -90.51,
    "found": false
  },
  {
    "name": "Escuela Tierra Blanca",
    "country": "Guatemala",
    "lat": 14.8572095,
    "lng": -90.1021909,
    "found": true
  },
  {
    "name": "INEBEMEZ JM",
    "country": "Guatemala",
    "lat": 14.54,
    "lng": -90.733,
    "found": false
  },
  {
    "name": "INEBEMEZ JV",
    "country": "Guatemala",
    "lat": 14.542,
    "lng": -90.734,
    "found": false
  },
  {
    "name": "Instituto Oscar Berger",
    "country": "Guatemala",
    "lat": 14.6646073,
    "lng": -90.4300381,
    "found": true
  },
  {
    "name": "Escuela Mezquital I JM",
    "country": "Guatemala",
    "lat": 14.51,
    "lng": -90.698,
    "found": false
  },
  {
    "name": "Escuela Mezquital I JV",
    "country": "Guatemala",
    "lat": 14.512,
    "lng": -90.699,
    "found": false
  },
  {
    "name": "Escuela Hatillo 2",
    "country": "Guatemala",
    "lat": 14.5013555,
    "lng": -90.8114232,
    "found": true
  },
  {
    "name": "Escuela La Capri",
    "country": "Guatemala",
    "lat": 14.4750707,
    "lng": -90.491919,
    "found": true
  },
  {
    "name": "Escuela Bilingüe María Ossa de Amador",
    "country": "Guatemala",
    "lat": 14.61,
    "lng": -90.53,
    "found": false
  },
  {
    "name": "Escuela Juan B. Sosa",
    "country": "Panama",
    "lat": 8.955561,
    "lng": -79.5430682,
    "found": true
  },
  {
    "name": "Escuela Flora Tolentino",
    "country": "Panama",
    "lat": 8.987,
    "lng": -79.513,
    "found": false
  },
  {
    "name": "Escuela El Valiente",
    "country": "Dominican Republic",
    "lat": 19.25,
    "lng": -69.5,
    "found": false
  },
  {
    "name": "Escuela Los Alifonsos",
    "country": "Dominican Republic",
    "lat": 18.5001,
    "lng": -69.85,
    "found": false
  },
  {
    "name": "Primaria Manuel Saenz",
    "country": "Mexico",
    "lat": 25.8138539,
    "lng": -100.2594923,
    "found": true
  },
  {
    "name": "Primaria Rafael Arévalo Martínez",
    "country": "Mexico",
    "lat": 19.38,
    "lng": -99.17,
    "found": false
  },
  {
    "name": "Secundaria 253",
    "country": "Mexico",
    "lat": 25.7751944,
    "lng": -100.1092018,
    "found": true
  },
  {
    "name": "Primaria Marcos E. Becerra",
    "country": "Mexico",
    "lat": 16.4700097,
    "lng": -92.3611379,
    "found": true
  },
  {
    "name": "Primaria Vicente Guerrero S.",
    "country": "Mexico",
    "lat": 30.7300477,
    "lng": -115.9882242,
    "found": true
  },
  {
    "name": "Telesecundaria Quetzalcóatl",
    "country": "Mexico",
    "lat": 19.48,
    "lng": -99.08,
    "found": false
  },
  {
    "name": "Escuela Primaria 5 de Febrero",
    "country": "Mexico",
    "lat": 24.0763991,
    "lng": -104.5042699,
    "found": true
  },
  {
    "name": "Escuela Primaria Lázaro Cárdenas",
    "country": "Mexico",
    "lat": 17.9594769,
    "lng": -102.198659,
    "found": true
  },
  {
    "name": "Escuela Primaria Lic. Gabril Ramos Millán",
    "country": "Mexico",
    "lat": 19.44,
    "lng": -99.11,
    "found": false
  },
  {
    "name": "I.E. Fé y Alegría",
    "country": "Colombia",
    "lat": 4.6352469,
    "lng": -74.1462917,
    "found": true
  },
  {
    "name": "I.E. Barrio París",
    "country": "Colombia",
    "lat": 6.3103985,
    "lng": -75.5858574,
    "found": true
  }
]